[
    {
      "id": 1,
      "name": "Grisly Pear MacDougal ",
      "time": "14:00:00",
      "location": "Grisly Pear MacDougal ",
      "latitude": 40.72992,
      "longitude": -74.00096,
      "borough": "Manhattan",
      "host": "Espi Rivadeneira",
      "cost": "$5=5 minutes ",
      "signup": "Show up, go up",
      "confirmation": "Confirmed 3/8/23"
    },
    {
      "id": 2,
      "name": "JTs Open Mic",
      "time": "14:30:00",
      "location": "Latern/Comedy Shop",
      "latitude": 40.72888,
      "longitude": -74.00009,
      "borough": "Manhattan",
      "host": "JT Anderson",
      "cost": "1 item min",
      "signup": "Sign up on website",
      "confirmation": "Confirmed 3/623"
    },
    {
      "id": 3,
      "name": "Bunk Bed Open Mic",
      "time": "15:00:00",
      "location": "Q.E.D. Astoria",
      "latitude": 40.77552,
      "longitude": -73.91502,
      "borough": "Queens",
      "host": "",
      "cost": "1 item min purchase",
      "signup": "Lottery style, 1st come/1st serve",
      "confirmation": "Confirmed 3/8/23"
    },
    {
      "id": 4,
      "name": "Audrey Moras Open Mic",
      "time": "15:00:00",
      "location": "Greenwich Village Comedy Club",
      "latitude": 40.72966,
      "longitude": -74.001099,
      "borough": "Manhattan",
      "host": "Audrey Mora",
      "cost": "$5=5 minutes ",
      "signup": "https://slotted.co/sundaysmic",
      "confirmation": "Confirmed 5/16/22"
    },
    {
      "id": 5,
      "name": "Comedy Shop Open Mic",
      "time": "16:00:00",
      "location": "Comedy Shop (Latern)",
      "latitude": 40.72888,
      "longitude": -74.00009,
      "borough": "Manhattan",
      "host": "Ethan Victor",
      "cost": "1 item min purchase",
      "signup": "Sign up on website ",
      "confirmation": "Confirmed 3/6/23"
    },
    {
      "id": 6,
      "name": "Juvenille Jokes",
      "time": "16:00:00",
      "location": "Producers Club 358 W. 44th",
      "latitude": 40.72966,
      "longitude": -73.9915,
      "borough": "Manhattan",
      "host": "Tomas Liebel",
      "cost": "$5",
      "signup": "Sign up in person or use this form to reserve: https://docs.google.com/forms/d/e/1FAIpQLSe-gjEO34oWCdYj2s3i-vYE8uR4M5-QWmV2-U6nKvNyZhE7TQ/viewform?usp=sf_link",
      "confirmation": "Requested 3/6/23"
    },
    {
      "id": 7,
      "name": "Pure Chaos",
      "time": "16:00:00",
      "location": "Easy Lover BK",
      "latitude": 40.7145615,
      "longitude": -73.9425485,
      "borough": "Brooklyn",
      "host": "Breck Gordon",
      "cost": "$3 + 1 item = 5 minutes",
      "signup": "dm @purechaoscomedy on ig up to 2 days before to sign up",
      "confirmation": "Confirmed 4/1/23"
    },
    {
      "id": 8,
      "name": "The End Of The Week Mic",
      "time": "17:00:00",
      "location": "Producers Club 358 W. 44th",
      "latitude": 40.72966,
      "longitude": -73.9915,
      "borough": "Manhattan",
      "host": "Alec Adams",
      "cost": "$5 + 1 item",
      "signup": "Show up go up",
      "confirmation": "Confirmed 3/6/23"
    },
    {
      "id": 9,
      "name": "Audrey Mora's Open Mic",
      "time": "17:00:00",
      "location": "Greenwich Village Comedy Club",
      "latitude": 40.72966,
      "longitude": -74.001099,
      "borough": "Manhattan",
      "host": "Audrey Mora",
      "cost": "$5=5 minutes",
      "signup": "https://slotted.co/sundaysmic",
      "confirmation": "Confirmed 5/16/23"
    },
    {
      "id": 10,
      "name": "Caffine Underground Mic",
      "time": "17:00:00",
      "location": "447 Central Ave, BK",
      "latitude": 40.6922146,
      "longitude": -73.914522,
      "borough": "Brooklyn",
      "host": "Adiel Kay",
      "cost": "1 item min. ",
      "signup": "Show up, go up",
      "confirmation": "Requested 3/6/23"
    },
    {
      "id": 11,
      "name": "Comedy Mob East",
      "time": "17:30:00",
      "location": "New York Comedy Club East 4th",
      "latitude": 40.7265891,
      "longitude": -73.9898025,
      "borough": "Manhattan",
      "host": "Kevin Hurley",
      "cost": "1 drink min",
      "signup": "Watch for sign up drop at ig @comedymobnyc Sign up at comedymob.com",
      "confirmation": "Confirmed 3/6/23"
    },
    {
      "id": 12,
      "name": "Grove 34",
      "time": "19:00:00",
      "location": "31-83 34th St Astoria",
      "latitude": 40.7610675,
      "longitude": -73.9225809,
      "borough": "Queens",
      "host": "Rob Rego",
      "cost": "free 3 min buy a drink is 5 ",
      "signup": "show up go up, mic schedule tentative, final schedule is published weekly and daily on the Grove34studio instagram",
      "confirmation": "Confirmed 6/4/23"
    },
    {
      "id": 13,
      "name": "Punching Bag Open Mic",
      "time": "20:00:00",
      "location": "O'keefe's, Brooklyn",
      "latitude": 40.6920277,
      "longitude": -73.9914226,
      "borough": "Brooklyn",
      "host": "Katie Jackson & Damon Millard",
      "cost": "1 item purchase",
      "signup": "Sign up before, no late arrivals",
      "confirmation": "Confirmed 3/8/23"
    }
   ]